
  [
    {
      "name": "AMAR",
      "description": "Wind Power Plant of Amaroni",
      "plant": "AMAR",
      "sse": "SSEAmaroni",
      "state": "ITALY",
      "region": "CALABRIA",
      "district": "ITA",
      "up": "UP_AMARONI_1",
      "asset": "ERG Renew",
      "nominalPower": "2500.0",
      "device": "AMA01",
      "subsystem": "WPP",
      "section": "L1",
      "model": "N90-IT",
      "serial": "82149",
      "altitude": "653",
      "longitude": "16,424603",
      "latitude": "38,792588",
      "year": "2012",
      "deviceType": "WTG",
      "ecName": "NC2_V22 SP2.2",
      "notes": "",
      "vendor": "Nordex",
      "municipality": ""
    },
    {
      "name": "AMAR",
      "description": "Wind Power Plant of Amaroni",
      "plant": "AMAR",
      "sse": "SSEAmaroni",
      "state": "ITALY",
      "region": "CALABRIA",
      "district": "ITA",
      "up": "UP_AMARONI_1",
      "asset": "ERG Renew",
      "nominalPower": "2500.0",
      "device": "AMA02",
      "subsystem": "WPP",
      "section": "L1",
      "model": "N90-IT",
      "serial": "82151",
      "altitude": "663,4",
      "longitude": "16,423858",
      "latitude": "38,789308",
      "year": "2012",
      "deviceType": "WTG",
      "ecName": "NC2_V22 SP2.2",
      "notes": "",
      "vendor": "Nordex",
      "municipality": ""
    },
    {
      "name": "AMAR",
      "description": "Wind Power Plant of Amaroni",
      "plant": "AMAR",
      "sse": "SSEAmaroni",
      "state": "ITALY",
      "region": "CALABRIA",
      "district": "ITA",
      "up": "UP_AMARONI_1",
      "asset": "ERG Renew",
      "nominalPower": "2500.0",
      "device": "AMA03",
      "subsystem": "WPP",
      "section": "L1",
      "model": "N90-IT",
      "serial": "82153",
      "altitude": "663,9",
      "longitude": "16,422146",
      "latitude": "38,787166",
      "year": "2012",
      "deviceType": "DEVICE_NON_VALIDO",
      "ecName": "NC2_V22 SP2.2",
      "notes": "",
      "vendor": "Nordex",
      "municipality": ""
    }
  ]
